{
"type": "FeatureCollection",
"name": "ogham_sites",
"crs": { "type": "name", "properties": { "name": "urn:ogc:def:crs:OGC:1.3:CRS84" } },
"features": [
{ "type": "Feature", "properties": { "id": "http://lod.ogham.link/data/OS40000031", "count": 15, "county": "Cork", "label": "Ballyknock (Ogham Site)" }, "geometry": { "type": "Point", "coordinates": [ -8.071111, 52.026944 ] } },
{ "type": "Feature", "properties": { "id": "http://lod.ogham.link/data/OS40000002", "count": 10, "county": "Waterford", "label": "Drumlohan (Ogham Site)" }, "geometry": { "type": "Point", "coordinates": [ -7.468056, 52.163056 ] } },
{ "type": "Feature", "properties": { "id": "http://lod.ogham.link/data/OS40000020", "count": 9, "county": "Kerry", "label": "Ballintaggart (Ogham Site)" }, "geometry": { "type": "Point", "coordinates": [ -10.031111, 52.1725 ] } },
{ "type": "Feature", "properties": { "id": "http://lod.ogham.link/data/OS40000149", "count": 8, "county": "Kerry", "label": "Kilcoolaght East / Kilhullicaha (Ogham Site)" }, "geometry": { "type": "Point", "coordinates": [ -9.747222, 52.071944 ] } },
{ "type": "Feature", "properties": { "id": "http://lod.ogham.link/data/OS40000170", "count": 8, "county": "Waterford", "label": "Knockboy (Ogham Site)" }, "geometry": { "type": "Point", "coordinates": [ -7.6, 52.111389 ] } },
{ "type": "Feature", "properties": { "id": "http://lod.ogham.link/data/OS40000019", "count": 7, "county": "Kerry", "label": "Ballinrannig (Ogham Site)" }, "geometry": { "type": "Point", "coordinates": [ -10.386111, 52.176111 ] } },
{ "type": "Feature", "properties": { "id": "http://lod.ogham.link/data/OS40000077", "count": 7, "county": "Kerry", "label": "Coolmagort (Ogham Site)" }, "geometry": { "type": "Point", "coordinates": [ -9.642778, 52.061111 ] } },
{ "type": "Feature", "properties": { "id": "http://lod.ogham.link/data/OS40000073", "count": 7, "county": "Kildare", "label": "Colbinstown / Killeen Cormac (Ogham Site)" }, "geometry": { "type": "Point", "coordinates": [ -6.756389, 53.031111 ] } },
{ "type": "Feature", "properties": { "id": "http://lod.ogham.link/data/OS40000030", "count": 6, "county": "Cork", "label": "Ballyhank (Ogham Site)" }, "geometry": { "type": "Point", "coordinates": [ -8.608333, 51.838611 ] } },
{ "type": "Feature", "properties": { "id": "http://lod.ogham.link/data/OS40000173", "count": 6, "county": "Cork", "label": "Knockshanawee (Ogham Site)" }, "geometry": { "type": "Point", "coordinates": [ -8.794722, 51.868056 ] } },
{ "type": "Feature", "properties": { "id": "http://lod.ogham.link/data/OS40000230", "count": 5, "county": "Kerry", "label": "Whitefield (Ogham Site)" }, "geometry": { "type": "Point", "coordinates": [ -9.703056, 52.080556 ] } },
{ "type": "Feature", "properties": { "id": "http://lod.ogham.link/data/OS40000154", "count": 5, "county": "Waterford", "label": "Kilgrovan (Ogham Site)" }, "geometry": { "type": "Point", "coordinates": [ -7.549722, 52.090556 ] } },
{ "type": "Feature", "properties": { "id": "http://lod.ogham.link/data/OS40000185", "count": 4, "county": "Cork", "label": "Monataggart (Ogham Site)" }, "geometry": { "type": "Point", "coordinates": [ -8.779444, 51.974444 ] } },
{ "type": "Feature", "properties": { "id": "http://lod.ogham.link/data/OS40000208", "count": 4, "county": "Kerry", "label": "Rockfield / Laharan (Ogham Site)" }, "geometry": { "type": "Point", "coordinates": [ -9.631667, 52.128889 ] } },
{ "type": "Feature", "properties": { "id": "http://lod.ogham.link/data/OS40000209", "count": 3, "county": "Cork", "label": "Rooves More (Ogham Site)" }, "geometry": { "type": "Point", "coordinates": [ -8.784167, 51.886667 ] } },
{ "type": "Feature", "properties": { "id": "http://lod.ogham.link/data/OS40000007", "count": 3, "county": "Cork", "label": "Ahalisky (Ogham Site)" }, "geometry": { "type": "Point", "coordinates": [ -8.846944, 51.678889 ] } },
{ "type": "Feature", "properties": { "id": "http://lod.ogham.link/data/OS40000126", "count": 3, "county": "Cork", "label": "Glebe / Shanacloon (Ogham Site)" }, "geometry": { "type": "Point", "coordinates": [ -9.115, 51.849444 ] } },
{ "type": "Feature", "properties": { "id": "http://lod.ogham.link/data/OS40000003", "count": 3, "county": "Kerry", "label": "Aghacarrible (Ogham Site)" }, "geometry": { "type": "Point", "coordinates": [ -10.176111, 52.129444 ] } },
{ "type": "Feature", "properties": { "id": "http://lod.ogham.link/data/OS40000012", "count": 3, "county": "Waterford", "label": "Ardocheasty (Ogham Site)" }, "geometry": { "type": "Point", "coordinates": [ -7.729167, 51.944167 ] } },
{ "type": "Feature", "properties": { "id": "http://lod.ogham.link/data/OS40000103", "count": 3, "county": "Waterford", "label": "Dromore Ogham Site (Ogham Site)" }, "geometry": { "type": "Point", "coordinates": [ -7.848889, 52.064444 ] } },
{ "type": "Feature", "properties": { "id": "http://lod.ogham.link/data/OS40000058", "count": 2, "county": "Antrim", "label": "Carncome (Ogham Site)" }, "geometry": { "type": "Point", "coordinates": [ -6.183333, 54.803056 ] } },
{ "type": "Feature", "properties": { "id": "http://lod.ogham.link/data/OS40000200", "count": 2, "county": "Cork", "label": "Rathcanning (Ogham Site)" }, "geometry": { "type": "Point", "coordinates": [ -8.075556, 51.977222 ] } },
{ "type": "Feature", "properties": { "id": "http://lod.ogham.link/data/OS40000128", "count": 2, "county": "Cork", "label": "Glenawillin (Ogham Site)" }, "geometry": { "type": "Point", "coordinates": [ -8.175556, 51.969444 ] } },
{ "type": "Feature", "properties": { "id": "http://lod.ogham.link/data/OS40000033", "count": 2, "county": "Cork", "label": "Ballynabortagh (Ogham Site)" }, "geometry": { "type": "Point", "coordinates": [ -8.453333, 52.010278 ] } },
{ "type": "Feature", "properties": { "id": "http://lod.ogham.link/data/OS40000136", "count": 2, "county": "Cork", "label": "Greenhill (Ogham Site)" }, "geometry": { "type": "Point", "coordinates": [ -8.601944, 52.081111 ] } },
{ "type": "Feature", "properties": { "id": "http://lod.ogham.link/data/OS40000076", "count": 2, "county": "Cork", "label": "Coolineagh (Ogham Site)" }, "geometry": { "type": "Point", "coordinates": [ -8.823889, 51.955833 ] } },
{ "type": "Feature", "properties": { "id": "http://lod.ogham.link/data/OS40000187", "count": 2, "county": "Cork", "label": "Mountrivers (Ogham Site)" }, "geometry": { "type": "Point", "coordinates": [ -8.829444, 51.970833 ] } },
{ "type": "Feature", "properties": { "id": "http://lod.ogham.link/data/OS40000172", "count": 2, "county": "Cork", "label": "Knockrour (Ogham Site)" }, "geometry": { "type": "Point", "coordinates": [ -8.838889, 51.9575 ] } },
{ "type": "Feature", "properties": { "id": "http://lod.ogham.link/data/OS40000057", "count": 2, "county": "Cork", "label": "Carhoovauler (Ogham Site)" }, "geometry": { "type": "Point", "coordinates": [ -8.956111, 51.688333 ] } },
{ "type": "Feature", "properties": { "id": "http://lod.ogham.link/data/OS40000202", "count": 2, "county": "Kerry", "label": "Rathduff (Ogham Site)" }, "geometry": { "type": "Point", "coordinates": [ -10.024444, 52.167778 ] } },
{ "type": "Feature", "properties": { "id": "http://lod.ogham.link/data/OS40000021", "count": 2, "county": "Kerry", "label": "Ballintermon (Ogham Site)" }, "geometry": { "type": "Point", "coordinates": [ -10.031389, 52.155278 ] } },
{ "type": "Feature", "properties": { "id": "http://lod.ogham.link/data/OS40000024", "count": 2, "county": "Kerry", "label": "Ballyandreen (Ogham Site)" }, "geometry": { "type": "Point", "coordinates": [ -10.0375, 52.165833 ] } },
{ "type": "Feature", "properties": { "id": "http://lod.ogham.link/data/OS40000181", "count": 2, "county": "Kerry", "label": "Lugnagappul (Ogham Site)" }, "geometry": { "type": "Point", "coordinates": [ -10.124722, 52.135833 ] } },
{ "type": "Feature", "properties": { "id": "http://lod.ogham.link/data/OS40000006", "count": 2, "county": "Kerry", "label": "Aglish (Ogham Site)" }, "geometry": { "type": "Point", "coordinates": [ -10.138056, 52.133056 ] } },
{ "type": "Feature", "properties": { "id": "http://lod.ogham.link/data/OS40000167", "count": 2, "county": "Kerry", "label": "Kinard East (Ogham Site)" }, "geometry": { "type": "Point", "coordinates": [ -10.194444, 52.120556 ] } },
{ "type": "Feature", "properties": { "id": "http://lod.ogham.link/data/OS40000161", "count": 2, "county": "Kerry", "label": "Killurly (Ogham Site)" }, "geometry": { "type": "Point", "coordinates": [ -10.301944, 51.843333 ] } },
{ "type": "Feature", "properties": { "id": "http://lod.ogham.link/data/OS40000074", "count": 2, "county": "Kerry", "label": "Cool East / Killeenadreena (Ogham Site)" }, "geometry": { "type": "Point", "coordinates": [ -10.365556, 51.912222 ] } },
{ "type": "Feature", "properties": { "id": "http://lod.ogham.link/data/OS40000194", "count": 2, "county": "Kerry", "label": "Parkavonear (Ogham Site)" }, "geometry": { "type": "Point", "coordinates": [ -9.558333, 52.077778 ] } },
{ "type": "Feature", "properties": { "id": "http://lod.ogham.link/data/OS40000010", "count": 2, "county": "Kerry", "label": "Ardcanaght (Ogham Site)" }, "geometry": { "type": "Point", "coordinates": [ -9.733611, 52.165556 ] } },
{ "type": "Feature", "properties": { "id": "http://lod.ogham.link/data/OS40000220", "count": 2, "county": "Kerry", "label": "Tinnahally (Ogham Site)" }, "geometry": { "type": "Point", "coordinates": [ -9.7575, 52.124722 ] } },
{ "type": "Feature", "properties": { "id": "http://lod.ogham.link/data/OS40000055", "count": 2, "county": "Kerry", "label": "Camp Ogham Site (Ogham Site)" }, "geometry": { "type": "Point", "coordinates": [ -9.910278, 52.215 ] } },
{ "type": "Feature", "properties": { "id": "http://lod.ogham.link/data/OS40000206", "count": 2, "county": "Kerry", "label": "Rathmalode / Loughor (Ogham Site)" }, "geometry": { "type": "Point", "coordinates": [ -9.990556, 52.1725 ] } },
{ "type": "Feature", "properties": { "id": "http://lod.ogham.link/data/OS40000108", "count": 2, "county": "Kilkenny", "label": "Dunbell Big (Ogham Site)" }, "geometry": { "type": "Point", "coordinates": [ -7.172222, 52.617778 ] } },
{ "type": "Feature", "properties": { "id": "http://lod.ogham.link/data/OS40000175", "count": 2, "county": "Kilkenny", "label": "Lamoge (Ogham Site)" }, "geometry": { "type": "Point", "coordinates": [ -7.360833, 52.443889 ] } },
{ "type": "Feature", "properties": { "id": "http://lod.ogham.link/data/OS40000221", "count": 2, "county": "Roscommon", "label": "Toberrory (Ogham Site)" }, "geometry": { "type": "Point", "coordinates": [ -8.297778, 53.8075 ] } },
{ "type": "Feature", "properties": { "id": "http://lod.ogham.link/data/OS40000038", "count": 2, "county": "Waterford", "label": "Ballyvoony (Ogham Site)" }, "geometry": { "type": "Point", "coordinates": [ -7.439167, 52.133333 ] } },
{ "type": "Feature", "properties": { "id": "http://lod.ogham.link/data/OS40000121", "count": 2, "county": "Waterford", "label": "Garranmillon (Ogham Site)" }, "geometry": { "type": "Point", "coordinates": [ -7.483333, 52.191389 ] } },
{ "type": "Feature", "properties": { "id": "http://lod.ogham.link/data/OS40000231", "count": 2, "county": "Waterford", "label": "Windgap or Ardmore (Ogham Site)" }, "geometry": { "type": "Point", "coordinates": [ -7.487778, 52.341944 ] } },
{ "type": "Feature", "properties": { "id": "http://lod.ogham.link/data/OS40000104", "count": 1, "county": "Armagh", "label": "Drumconwell (Ogham Site)" }, "geometry": { "type": "Point", "coordinates": [ -6.655278, 54.307222 ] } },
{ "type": "Feature", "properties": { "id": "http://lod.ogham.link/data/OS40000070", "count": 1, "county": "Carlow", "label": "Clonmore (Ogham Site)" }, "geometry": { "type": "Point", "coordinates": [ -6.573611, 52.826389 ] } },
{ "type": "Feature", "properties": { "id": "http://lod.ogham.link/data/OS40000203", "count": 1, "county": "Carlow", "label": "Rathglass (Ogham Site)" }, "geometry": { "type": "Point", "coordinates": [ -6.716667, 52.781944 ] } },
{ "type": "Feature", "properties": { "id": "http://lod.ogham.link/data/OS40000225", "count": 1, "county": "Carlow", "label": "Tuckamine (Ogham Site)" }, "geometry": { "type": "Point", "coordinates": [ -6.727222, 52.848056 ] } },
{ "type": "Feature", "properties": { "id": "http://lod.ogham.link/data/OS40000151", "count": 1, "county": "Carlow", "label": "Kilcumney (Ogham Site)" }, "geometry": { "type": "Point", "coordinates": [ -6.956452, 52.631753 ] } },
{ "type": "Feature", "properties": { "id": "http://lod.ogham.link/data/OS40000198", "count": 1, "county": "Cavan", "label": "Rantavan (Ogham Site)" }, "geometry": { "type": "Point", "coordinates": [ -6.954444, 53.805 ] } },
{ "type": "Feature", "properties": { "id": "http://lod.ogham.link/data/OS40000110", "count": 1, "county": "Cavan", "label": "Dungummin (Ogham Site)" }, "geometry": { "type": "Point", "coordinates": [ -7.209444, 53.794444 ] } },
{ "type": "Feature", "properties": { "id": "http://lod.ogham.link/data/OS40000215", "count": 1, "county": "Clare", "label": "Shantraud (Ogham Site)" }, "geometry": { "type": "Point", "coordinates": [ -8.447778, 52.803333 ] } },
{ "type": "Feature", "properties": { "id": "http://lod.ogham.link/data/OS40000114", "count": 1, "county": "Clare", "label": "Ennis Ogham Site (Ogham Site)" }, "geometry": { "type": "Point", "coordinates": [ -8.9807, 52.8463 ] } },
{ "type": "Feature", "properties": { "id": "http://lod.ogham.link/data/OS40000229", "count": 1, "county": "Clare", "label": "Tullycommon (Ogham Site)" }, "geometry": { "type": "Point", "coordinates": [ -9.063611, 53.022222 ] } },
{ "type": "Feature", "properties": { "id": "http://lod.ogham.link/data/OS40000201", "count": 1, "county": "Cork", "label": "Rathcobane (Ogham Site)" }, "geometry": { "type": "Point", "coordinates": [ -8.246111, 52.005278 ] } },
{ "type": "Feature", "properties": { "id": "http://lod.ogham.link/data/OS40000044", "count": 1, "county": "Cork", "label": "Bishop`s Island (Ogham Site)" }, "geometry": { "type": "Point", "coordinates": [ -8.360556, 52.008611 ] } },
{ "type": "Feature", "properties": { "id": "http://lod.ogham.link/data/OS40000109", "count": 1, "county": "Cork", "label": "Dunbulloge (Ogham Site)" }, "geometry": { "type": "Point", "coordinates": [ -8.452778, 51.980833 ] } },
{ "type": "Feature", "properties": { "id": "http://lod.ogham.link/data/OS40000078", "count": 1, "county": "Cork", "label": "Coolowen (Ogham Site)" }, "geometry": { "type": "Point", "coordinates": [ -8.539722, 51.957778 ] } },
{ "type": "Feature", "properties": { "id": "http://lod.ogham.link/data/OS40000053", "count": 1, "county": "Cork", "label": "Burnfort (Ogham Site)" }, "geometry": { "type": "Point", "coordinates": [ -8.599444, 52.068056 ] } },
{ "type": "Feature", "properties": { "id": "http://lod.ogham.link/data/OS40000228", "count": 1, "county": "Cork", "label": "Tullig More (Ogham Site)" }, "geometry": { "type": "Point", "coordinates": [ -8.757222, 51.946389 ] } },
{ "type": "Feature", "properties": { "id": "http://lod.ogham.link/data/OS40000120", "count": 1, "county": "Cork", "label": "Garranes (Ogham Site)" }, "geometry": { "type": "Point", "coordinates": [ -8.761667, 51.816389 ] } },
{ "type": "Feature", "properties": { "id": "http://lod.ogham.link/data/OS40000164", "count": 1, "county": "Cork", "label": "Kilmartin Lower (Ogham Site)" }, "geometry": { "type": "Point", "coordinates": [ -8.789444, 51.985556 ] } },
{ "type": "Feature", "properties": { "id": "http://lod.ogham.link/data/OS40000150", "count": 1, "county": "Cork", "label": "Kilcullen South (Ogham Site)" }, "geometry": { "type": "Point", "coordinates": [ -8.81, 51.9875 ] } },
{ "type": "Feature", "properties": { "id": "http://lod.ogham.link/data/OS40000042", "count": 1, "county": "Cork", "label": "Barrahaurin (Ogham Site)" }, "geometry": { "type": "Point", "coordinates": [ -8.818333, 52.015833 ] } },
{ "type": "Feature", "properties": { "id": "http://lod.ogham.link/data/OS40000127", "count": 1, "county": "Cork", "label": "Glenaglogh North (Ogham Site)" }, "geometry": { "type": "Point", "coordinates": [ -8.866111, 51.991111 ] } },
{ "type": "Feature", "properties": { "id": "http://lod.ogham.link/data/OS40000093", "count": 1, "county": "Cork", "label": "Deelish (Ogham Site)" }, "geometry": { "type": "Point", "coordinates": [ -8.887778, 51.940833 ] } },
{ "type": "Feature", "properties": { "id": "http://lod.ogham.link/data/OS40000218", "count": 1, "county": "Cork", "label": "Templebryan North (Ogham Site)" }, "geometry": { "type": "Point", "coordinates": [ -8.893056, 51.645 ] } },
{ "type": "Feature", "properties": { "id": "http://lod.ogham.link/data/OS40000059", "count": 1, "county": "Cork", "label": "Carrigagulla (Ogham Site)" }, "geometry": { "type": "Point", "coordinates": [ -8.909167, 52.0075 ] } },
{ "type": "Feature", "properties": { "id": "http://lod.ogham.link/data/OS40000087", "count": 1, "county": "Cork", "label": "Crinnaloo North (Ogham Site)" }, "geometry": { "type": "Point", "coordinates": [ -8.928056, 52.066667 ] } },
{ "type": "Feature", "properties": { "id": "http://lod.ogham.link/data/OS40000052", "count": 1, "county": "Cork", "label": "Burgatia / Teampuleen Fachtna (Ogham Site)" }, "geometry": { "type": "Point", "coordinates": [ -9.0125, 51.577778 ] } },
{ "type": "Feature", "properties": { "id": "http://lod.ogham.link/data/OS40000075", "count": 1, "county": "Cork", "label": "Cooldorragha (Ogham Site)" }, "geometry": { "type": "Point", "coordinates": [ -9.026388888, 51.841944444 ] } },
{ "type": "Feature", "properties": { "id": "http://lod.ogham.link/data/OS40000186", "count": 1, "county": "Cork", "label": "Mount Music / Knockoran (Ogham Site)" }, "geometry": { "type": "Point", "coordinates": [ -9.083889, 51.926111 ] } },
{ "type": "Feature", "properties": { "id": "http://lod.ogham.link/data/OS40000016", "count": 1, "county": "Cork", "label": "Aultagh (Ogham Site)" }, "geometry": { "type": "Point", "coordinates": [ -9.088056, 51.770833 ] } },
{ "type": "Feature", "properties": { "id": "http://lod.ogham.link/data/OS40000145", "count": 1, "county": "Cork", "label": "Keenrath (Ogham Site)" }, "geometry": { "type": "Point", "coordinates": [ -9.185833, 51.759444 ] } },
{ "type": "Feature", "properties": { "id": "http://lod.ogham.link/data/OS40000143", "count": 1, "county": "Cork", "label": "Kealvaugh More (Ogham Site)" }, "geometry": { "type": "Point", "coordinates": [ -9.228056, 51.828333 ] } },
{ "type": "Feature", "properties": { "id": "http://lod.ogham.link/data/OS40000079", "count": 1, "county": "Cork", "label": "Coomleagh East / Coomlia (Ogham Site)" }, "geometry": { "type": "Point", "coordinates": [ -9.283611, 51.733056 ] } },
{ "type": "Feature", "properties": { "id": "http://lod.ogham.link/data/OS40000148", "count": 1, "county": "Cork", "label": "Kilcaskan (Ogham Site)" }, "geometry": { "type": "Point", "coordinates": [ -9.711944, 51.7275 ] } },
{ "type": "Feature", "properties": { "id": "http://lod.ogham.link/data/OS40000116", "count": 1, "county": "Cork", "label": "Faunkill and the Woods / BallycrovaneFaunkill and the Woods (Ogham Site)" }, "geometry": { "type": "Point", "coordinates": [ -9.935278, 51.712222 ] } },
{ "type": "Feature", "properties": { "id": "http://lod.ogham.link/data/OS40000133", "count": 1, "county": "Cork", "label": "Gour (Ogham Site)" }, "geometry": { "type": "Point", "coordinates": [ -9.981667, 51.628889 ] } },
{ "type": "Feature", "properties": { "id": "http://lod.ogham.link/data/OS40000216", "count": 1, "county": "Donegal", "label": "Station Island (Ogham Site)" }, "geometry": { "type": "Point", "coordinates": [ -7.871111, 54.608611 ] } },
{ "type": "Feature", "properties": { "id": "http://lod.ogham.link/data/OS40000196", "count": 1, "county": "Dublin", "label": "Portmarnock (Ogham Site)" }, "geometry": { "type": "Point", "coordinates": [ -6.1525, 53.419722 ] } },
{ "type": "Feature", "properties": { "id": "http://lod.ogham.link/data/OS40000189", "count": 1, "county": "Fermanagh", "label": "Mullyknock or Topped Mountain (Ogham Site)" }, "geometry": { "type": "Point", "coordinates": [ -7.5175, 54.362222 ] } },
{ "type": "Feature", "properties": { "id": "http://lod.ogham.link/data/OS40000139", "count": 1, "county": "Galway", "label": "Inchagoill (Ogham Site)" }, "geometry": { "type": "Point", "coordinates": [ -9.316944, 53.485556 ] } },
{ "type": "Feature", "properties": { "id": "http://lod.ogham.link/data/OS40000183", "count": 1, "county": "Kerry", "label": "Martramane (Ogham Site)" }, "geometry": { "type": "Point", "coordinates": [ -10.023333, 52.251944 ] } },
{ "type": "Feature", "properties": { "id": "http://lod.ogham.link/data/OS40000178", "count": 1, "county": "Kerry", "label": "Letter West (Ogham Site)" }, "geometry": { "type": "Point", "coordinates": [ -10.025278, 52.013611 ] } },
{ "type": "Feature", "properties": { "id": "http://lod.ogham.link/data/OS40000155", "count": 1, "county": "Kerry", "label": "Kilkeehagh (Ogham Site)" }, "geometry": { "type": "Point", "coordinates": [ -10.029167, 52.031111 ] } },
{ "type": "Feature", "properties": { "id": "http://lod.ogham.link/data/OS40000034", "count": 1, "county": "Kerry", "label": "Ballynahunt (Ogham Site)" }, "geometry": { "type": "Point", "coordinates": [ -10.029722, 52.1875 ] } },
{ "type": "Feature", "properties": { "id": "http://lod.ogham.link/data/OS40000047", "count": 1, "county": "Kerry", "label": "Brackloon (Ogham Site)" }, "geometry": { "type": "Point", "coordinates": [ -10.036389, 52.146944 ] } },
{ "type": "Feature", "properties": { "id": "http://lod.ogham.link/data/OS40000013", "count": 1, "county": "Kerry", "label": "Ardrinane (Ogham Site)" }, "geometry": { "type": "Point", "coordinates": [ -10.049167, 52.143056 ] } },
{ "type": "Feature", "properties": { "id": "http://lod.ogham.link/data/OS40000217", "count": 1, "county": "Kerry", "label": "Teeromoyle (Ogham Site)" }, "geometry": { "type": "Point", "coordinates": [ -10.058889, 51.970833 ] } },
{ "type": "Feature", "properties": { "id": "http://lod.ogham.link/data/OS40000008", "count": 1, "county": "Kerry", "label": "Annagap (Ogham Site)" }, "geometry": { "type": "Point", "coordinates": [ -10.063056, 52.159167 ] } },
{ "type": "Feature", "properties": { "id": "http://lod.ogham.link/data/OS40000101", "count": 1, "county": "Kerry", "label": "Dromkeare (Ogham Site)" }, "geometry": { "type": "Point", "coordinates": [ -10.113611, 51.848056 ] } },
{ "type": "Feature", "properties": { "id": "http://lod.ogham.link/data/OS40000092", "count": 1, "county": "Kerry", "label": "Darrynane Beg (Ogham Site)" }, "geometry": { "type": "Point", "coordinates": [ -10.122222, 51.773056 ] } },
{ "type": "Feature", "properties": { "id": "http://lod.ogham.link/data/OS40000132", "count": 1, "county": "Kerry", "label": "Gortnagullanagh (Ogham Site)" }, "geometry": { "type": "Point", "coordinates": [ -10.126667, 52.140833 ] } },
{ "type": "Feature", "properties": { "id": "http://lod.ogham.link/data/OS40000022", "count": 1, "county": "Kerry", "label": "Ballinvoher (Ogham Site)" }, "geometry": { "type": "Point", "coordinates": [ -10.159444, 52.186944 ] } },
{ "type": "Feature", "properties": { "id": "http://lod.ogham.link/data/OS40000048", "count": 1, "county": "Kerry", "label": "Brandon Mountain (Ogham Site)" }, "geometry": { "type": "Point", "coordinates": [ -10.159444, 52.186944 ] } },
{ "type": "Feature", "properties": { "id": "http://lod.ogham.link/data/OS40000124", "count": 1, "county": "Kerry", "label": "Glanmore (Ogham Site)" }, "geometry": { "type": "Point", "coordinates": [ -10.159444, 52.186944 ] } },
{ "type": "Feature", "properties": { "id": "http://lod.ogham.link/data/OS40000056", "count": 1, "county": "Kerry", "label": "Canburrin (Ogham Site)" }, "geometry": { "type": "Point", "coordinates": [ -10.166667, 51.921111 ] } },
{ "type": "Feature", "properties": { "id": "http://lod.ogham.link/data/OS40000158", "count": 1, "county": "Kerry", "label": "Killogrone (Ogham Site)" }, "geometry": { "type": "Point", "coordinates": [ -10.175833, 51.913333 ] } },
{ "type": "Feature", "properties": { "id": "http://lod.ogham.link/data/OS40000067", "count": 1, "county": "Kerry", "label": "Cloghanecarhan (Ogham Site)" }, "geometry": { "type": "Point", "coordinates": [ -10.176944, 51.894167 ] } },
{ "type": "Feature", "properties": { "id": "http://lod.ogham.link/data/OS40000017", "count": 1, "county": "Kerry", "label": "Ballineesteenig (Ogham Site)" }, "geometry": { "type": "Point", "coordinates": [ -10.2075, 52.140556 ] } },
{ "type": "Feature", "properties": { "id": "http://lod.ogham.link/data/OS40000177", "count": 1, "county": "Kerry", "label": "Letter Ogham Site (Ogham Site)" }, "geometry": { "type": "Point", "coordinates": [ -10.220833, 51.923333 ] } },
{ "type": "Feature", "properties": { "id": "http://lod.ogham.link/data/OS40000112", "count": 1, "county": "Kerry", "label": "Emlagh East (Ogham Site)" }, "geometry": { "type": "Point", "coordinates": [ -10.228056, 52.133056 ] } },
{ "type": "Feature", "properties": { "id": "http://lod.ogham.link/data/OS40000015", "count": 1, "county": "Kerry", "label": "Arraglen (Ogham Site)" }, "geometry": { "type": "Point", "coordinates": [ -10.236944, 52.2675 ] } },
{ "type": "Feature", "properties": { "id": "http://lod.ogham.link/data/OS40000096", "count": 1, "county": "Kerry", "label": "Dingle Ogham Site (Ogham Site)" }, "geometry": { "type": "Point", "coordinates": [ -10.27, 52.14 ] } },
{ "type": "Feature", "properties": { "id": "http://lod.ogham.link/data/OS40000113", "count": 1, "county": "Kerry", "label": "Emlagh West (Ogham Site)" }, "geometry": { "type": "Point", "coordinates": [ -10.270556, 52.135278 ] } },
{ "type": "Feature", "properties": { "id": "http://lod.ogham.link/data/OS40000152", "count": 1, "county": "Kerry", "label": "Kilfountan (Ogham Site)" }, "geometry": { "type": "Point", "coordinates": [ -10.300556, 52.153333 ] } },
{ "type": "Feature", "properties": { "id": "http://lod.ogham.link/data/OS40000054", "count": 1, "county": "Kerry", "label": "Burnham East (Ogham Site)" }, "geometry": { "type": "Point", "coordinates": [ -10.306944, 52.125833 ] } },
{ "type": "Feature", "properties": { "id": "http://lod.ogham.link/data/OS40000028", "count": 1, "county": "Kerry", "label": "Ballyeightragh (Ogham Site)" }, "geometry": { "type": "Point", "coordinates": [ -10.323333, 52.160556 ] } },
{ "type": "Feature", "properties": { "id": "http://lod.ogham.link/data/OS40000032", "count": 1, "county": "Kerry", "label": "Ballymorereagh (Ogham Site)" }, "geometry": { "type": "Point", "coordinates": [ -10.3275, 52.151389 ] } },
{ "type": "Feature", "properties": { "id": "http://lod.ogham.link/data/OS40000162", "count": 1, "county": "Kerry", "label": "Kilmalkedar (Ogham Site)" }, "geometry": { "type": "Point", "coordinates": [ -10.333056, 52.188333 ] } },
{ "type": "Feature", "properties": { "id": "http://lod.ogham.link/data/OS40000184", "count": 1, "county": "Kerry", "label": "Maumanorig (Ogham Site)" }, "geometry": { "type": "Point", "coordinates": [ -10.359444, 52.144722 ] } },
{ "type": "Feature", "properties": { "id": "http://lod.ogham.link/data/OS40000207", "count": 1, "county": "Kerry", "label": "Reask (Ogham Site)" }, "geometry": { "type": "Point", "coordinates": [ -10.382222, 52.166667 ] } },
{ "type": "Feature", "properties": { "id": "http://lod.ogham.link/data/OS40000039", "count": 1, "county": "Kerry", "label": "Ballywiheen / Cahernagat (Ogham Site)" }, "geometry": { "type": "Point", "coordinates": [ -10.400833, 52.155833 ] } },
{ "type": "Feature", "properties": { "id": "http://lod.ogham.link/data/OS40000123", "count": 1, "county": "Kerry", "label": "Glanfahan (Ogham Site)" }, "geometry": { "type": "Point", "coordinates": [ -10.437222, 52.103333 ] } },
{ "type": "Feature", "properties": { "id": "http://lod.ogham.link/data/OS40000083", "count": 1, "county": "Kerry", "label": "Coumeenoole North / Dunmore Head (Ogham Site)" }, "geometry": { "type": "Point", "coordinates": [ -10.458333, 52.111944 ] } },
{ "type": "Feature", "properties": { "id": "http://lod.ogham.link/data/OS40000141", "count": 1, "county": "Kerry", "label": "Inishvickillane (Ogham Site)" }, "geometry": { "type": "Point", "coordinates": [ -10.607778, 52.044444 ] } },
{ "type": "Feature", "properties": { "id": "http://lod.ogham.link/data/OS40000140", "count": 1, "county": "Kerry", "label": "Inchinanagh (Ogham Site)" }, "geometry": { "type": "Point", "coordinates": [ -9.389167, 51.839444 ] } },
{ "type": "Feature", "properties": { "id": "http://lod.ogham.link/data/OS40000180", "count": 1, "county": "Kerry", "label": "Lomanagh (Ogham Site)" }, "geometry": { "type": "Point", "coordinates": [ -9.413611, 51.883333 ] } },
{ "type": "Feature", "properties": { "id": "http://lod.ogham.link/data/OS40000072", "count": 1, "county": "Kerry", "label": "Cockhill / Kilnaughtin (Ogham Site)" }, "geometry": { "type": "Point", "coordinates": [ -9.421389, 52.566667 ] } },
{ "type": "Feature", "properties": { "id": "http://lod.ogham.link/data/OS40000043", "count": 1, "county": "Kerry", "label": "Bawnaglanna (Ogham Site)" }, "geometry": { "type": "Point", "coordinates": [ -9.438889, 52.1425 ] } },
{ "type": "Feature", "properties": { "id": "http://lod.ogham.link/data/OS40000100", "count": 1, "county": "Kerry", "label": "Dromatouk (Ogham Site)" }, "geometry": { "type": "Point", "coordinates": [ -9.525833, 51.885278 ] } },
{ "type": "Feature", "properties": { "id": "http://lod.ogham.link/data/OS40000085", "count": 1, "county": "Kerry", "label": "Crag (Ogham Site)" }, "geometry": { "type": "Point", "coordinates": [ -9.5325, 52.191667 ] } },
{ "type": "Feature", "properties": { "id": "http://lod.ogham.link/data/OS40000159", "count": 1, "county": "Kerry", "label": "Killorglin Townland" }, "geometry": { "type": "Point", "coordinates": [ -9.540833, 52.233611 ] } },
{ "type": "Feature", "properties": { "id": "http://lod.ogham.link/data/OS40000160", "count": 1, "county": "Kerry", "label": "Killorglin [neighbourhood of] (Ogham Site)" }, "geometry": { "type": "Point", "coordinates": [ -9.540833, 52.233611 ] } },
{ "type": "Feature", "properties": { "id": "http://lod.ogham.link/data/OS40000131", "count": 1, "county": "Kerry", "label": "Gortmaccaree (Ogham Site)" }, "geometry": { "type": "Point", "coordinates": [ -9.551667, 51.8475 ] } },
{ "type": "Feature", "properties": { "id": "http://lod.ogham.link/data/OS40000130", "count": 1, "county": "Kerry", "label": "Gortatlea (Ogham Site)" }, "geometry": { "type": "Point", "coordinates": [ -9.581944, 52.226667 ] } },
{ "type": "Feature", "properties": { "id": "http://lod.ogham.link/data/OS40000089", "count": 1, "county": "Kerry", "label": "Curraghmore East (Ogham Site)" }, "geometry": { "type": "Point", "coordinates": [ -9.621667, 52.208611 ] } },
{ "type": "Feature", "properties": { "id": "http://lod.ogham.link/data/OS40000014", "count": 1, "county": "Kerry", "label": "Ardwanig (Ogham Site)" }, "geometry": { "type": "Point", "coordinates": [ -9.662778, 52.147778 ] } },
{ "type": "Feature", "properties": { "id": "http://lod.ogham.link/data/OS40000095", "count": 1, "county": "Kerry", "label": "Derrygarriv (Ogham Site)" }, "geometry": { "type": "Point", "coordinates": [ -9.665, 51.974444 ] } },
{ "type": "Feature", "properties": { "id": "http://lod.ogham.link/data/OS40000147", "count": 1, "county": "Kerry", "label": "Kilbonane (Ogham Site)" }, "geometry": { "type": "Point", "coordinates": [ -9.673611, 52.086111 ] } },
{ "type": "Feature", "properties": { "id": "http://lod.ogham.link/data/OS40000046", "count": 1, "county": "Kerry", "label": "Brackhill / Brakel (Ogham Site)" }, "geometry": { "type": "Point", "coordinates": [ -9.687778, 52.161944 ] } },
{ "type": "Feature", "properties": { "id": "http://lod.ogham.link/data/OS40000224", "count": 1, "county": "Kerry", "label": "Tralee Ogham Site (Ogham Site)" }, "geometry": { "type": "Point", "coordinates": [ -9.710278, 52.268056 ] } },
{ "type": "Feature", "properties": { "id": "http://lod.ogham.link/data/OS40000153", "count": 1, "county": "Kerry", "label": "Kilgobnet (Ogham Site)" }, "geometry": { "type": "Point", "coordinates": [ -9.718889, 52.068056 ] } },
{ "type": "Feature", "properties": { "id": "http://lod.ogham.link/data/OS40000118", "count": 1, "county": "Kerry", "label": "Fortwilliam (Ogham Site)" }, "geometry": { "type": "Point", "coordinates": [ -9.724167, 52.362778 ] } },
{ "type": "Feature", "properties": { "id": "http://lod.ogham.link/data/OS40000094", "count": 1, "county": "Kerry", "label": "Derrygarrane South (Ogham Site)" }, "geometry": { "type": "Point", "coordinates": [ -9.746667, 51.91 ] } },
{ "type": "Feature", "properties": { "id": "http://lod.ogham.link/data/OS40000080", "count": 1, "county": "Kerry", "label": "Corkaboy (Ogham Site)" }, "geometry": { "type": "Point", "coordinates": [ -9.771944, 52.165833 ] } },
{ "type": "Feature", "properties": { "id": "http://lod.ogham.link/data/OS40000011", "count": 1, "county": "Kerry", "label": "Ardfert (Ogham Site)" }, "geometry": { "type": "Point", "coordinates": [ -9.772778, 52.328889 ] } },
{ "type": "Feature", "properties": { "id": "http://lod.ogham.link/data/OS40000102", "count": 1, "county": "Kerry", "label": "Dromlusk (Ogham Site)" }, "geometry": { "type": "Point", "coordinates": [ -9.786667, 51.881111 ] } },
{ "type": "Feature", "properties": { "id": "http://lod.ogham.link/data/OS40000182", "count": 1, "county": "Kerry", "label": "Mangerton (Ogham Site)" }, "geometry": { "type": "Point", "coordinates": [ -9.875, 51.858611 ] } },
{ "type": "Feature", "properties": { "id": "http://lod.ogham.link/data/OS40000195", "count": 1, "county": "Kerry", "label": "Parknasilla (Ogham Site)" }, "geometry": { "type": "Point", "coordinates": [ -9.875, 51.858611 ] } },
{ "type": "Feature", "properties": { "id": "http://lod.ogham.link/data/OS40000097", "count": 1, "county": "Kildare", "label": "Donaghmore (Ogham Site)" }, "geometry": { "type": "Point", "coordinates": [ -6.551111, 53.375278 ] } },
{ "type": "Feature", "properties": { "id": "http://lod.ogham.link/data/OS40000135", "count": 1, "county": "Kilkenny", "label": "Graiguenamanagh (Ogham Site)" }, "geometry": { "type": "Point", "coordinates": [ -6.958056, 52.5425 ] } },
{ "type": "Feature", "properties": { "id": "http://lod.ogham.link/data/OS40000117", "count": 1, "county": "Kilkenny", "label": "Fiddaun Upper (Ogham Site)" }, "geometry": { "type": "Point", "coordinates": [ -7.036389, 52.518889 ] } },
{ "type": "Feature", "properties": { "id": "http://lod.ogham.link/data/OS40000134", "count": 1, "county": "Kilkenny", "label": "Gowran (Ogham Site)" }, "geometry": { "type": "Point", "coordinates": [ -7.066111, 52.6325 ] } },
{ "type": "Feature", "properties": { "id": "http://lod.ogham.link/data/OS40000227", "count": 1, "county": "Kilkenny", "label": "Tullaherin (Ogham Site)" }, "geometry": { "type": "Point", "coordinates": [ -7.121389, 52.5775 ] } },
{ "type": "Feature", "properties": { "id": "http://lod.ogham.link/data/OS40000064", "count": 1, "county": "Kilkenny", "label": "Churchclara (Ogham Site)" }, "geometry": { "type": "Point", "coordinates": [ -7.150556, 52.651389 ] } },
{ "type": "Feature", "properties": { "id": "http://lod.ogham.link/data/OS40000176", "count": 1, "county": "Kilkenny", "label": "Legan (Ogham Site)" }, "geometry": { "type": "Point", "coordinates": [ -7.158611, 52.538611 ] } },
{ "type": "Feature", "properties": { "id": "http://lod.ogham.link/data/OS40000026", "count": 1, "county": "Kilkenny", "label": "Ballyboodan (Ogham Site)" }, "geometry": { "type": "Point", "coordinates": [ -7.231111, 52.471944 ] } },
{ "type": "Feature", "properties": { "id": "http://lod.ogham.link/data/OS40000036", "count": 1, "county": "Kilkenny", "label": "Ballyspellan (Ogham Site)" }, "geometry": { "type": "Point", "coordinates": [ -7.524444, 52.76 ] } },
{ "type": "Feature", "properties": { "id": "http://lod.ogham.link/data/OS40000071", "count": 1, "county": "Leitrim", "label": "Cloonmorris (Ogham Site)" }, "geometry": { "type": "Point", "coordinates": [ -7.870556, 53.816389 ] } },
{ "type": "Feature", "properties": { "id": "http://lod.ogham.link/data/OS40000018", "count": 1, "county": "Limerick", "label": "Ballingarry (Ogham Site)" }, "geometry": { "type": "Point", "coordinates": [ -8.377222, 52.381944 ] } },
{ "type": "Feature", "properties": { "id": "http://lod.ogham.link/data/OS40000188", "count": 1, "county": "Limerick", "label": "Mountrussell (Ogham Site)" }, "geometry": { "type": "Point", "coordinates": [ -8.562778, 52.328611 ] } },
{ "type": "Feature", "properties": { "id": "http://lod.ogham.link/data/OS40000029", "count": 1, "county": "Limerick", "label": "Ballyelan (Ogham Site)" }, "geometry": { "type": "Point", "coordinates": [ -8.823889, 52.4575 ] } },
{ "type": "Feature", "properties": { "id": "http://lod.ogham.link/data/OS40000107", "count": 1, "county": "Londonderry", "label": "Dunalis Upper (Ogham Site)" }, "geometry": { "type": "Point", "coordinates": [ -6.744444, 55.116667 ] } },
{ "type": "Feature", "properties": { "id": "http://lod.ogham.link/data/OS40000041", "count": 1, "county": "Louth", "label": "Barnaveddoge (Ogham Site)" }, "geometry": { "type": "Point", "coordinates": [ -6.476667, 53.845 ] } },
{ "type": "Feature", "properties": { "id": "http://lod.ogham.link/data/OS40000210", "count": 1, "county": "Mayo", "label": "Rusheens East (Ogham Site)" }, "geometry": { "type": "Point", "coordinates": [ -8.665278, 53.896111 ] } },
{ "type": "Feature", "properties": { "id": "http://lod.ogham.link/data/OS40000226", "count": 1, "county": "Mayo", "label": "Tullaghaun (Ogham Site)" }, "geometry": { "type": "Point", "coordinates": [ -8.709444, 53.728611 ] } },
{ "type": "Feature", "properties": { "id": "http://lod.ogham.link/data/OS40000163", "count": 1, "county": "Mayo", "label": "Kilmannin (Ogham Site)" }, "geometry": { "type": "Point", "coordinates": [ -8.765556, 53.773611 ] } },
{ "type": "Feature", "properties": { "id": "http://lod.ogham.link/data/OS40000142", "count": 1, "county": "Mayo", "label": "Island (Ogham Site)" }, "geometry": { "type": "Point", "coordinates": [ -8.805, 53.781667 ] } },
{ "type": "Feature", "properties": { "id": "http://lod.ogham.link/data/OS40000081", "count": 1, "county": "Mayo", "label": "Corrower (Ogham Site)" }, "geometry": { "type": "Point", "coordinates": [ -9.083889, 54.074444 ] } },
{ "type": "Feature", "properties": { "id": "http://lod.ogham.link/data/OS40000049", "count": 1, "county": "Mayo", "label": "Breastagh (Ogham Site)" }, "geometry": { "type": "Point", "coordinates": [ -9.248056, 54.248611 ] } },
{ "type": "Feature", "properties": { "id": "http://lod.ogham.link/data/OS40000004", "count": 1, "county": "Mayo", "label": "Aghaleague (Ogham Site)" }, "geometry": { "type": "Point", "coordinates": [ -9.330833, 54.260278 ] } },
{ "type": "Feature", "properties": { "id": "http://lod.ogham.link/data/OS40000099", "count": 1, "county": "Mayo", "label": "Dooghmakeon (Ogham Site)" }, "geometry": { "type": "Point", "coordinates": [ -9.87, 53.746389 ] } },
{ "type": "Feature", "properties": { "id": "http://lod.ogham.link/data/OS40000193", "count": 1, "county": "Meath", "label": "Painestown / Saneschalstown (Ogham Site)" }, "geometry": { "type": "Point", "coordinates": [ -6.559167, 53.673333 ] } },
{ "type": "Feature", "properties": { "id": "http://lod.ogham.link/data/OS40000061", "count": 1, "county": "Meath", "label": "Castlekeeran (Ogham Site)" }, "geometry": { "type": "Point", "coordinates": [ -6.96, 53.735833 ] } },
{ "type": "Feature", "properties": { "id": "http://lod.ogham.link/data/OS40000105", "count": 1, "county": "Roscommon", "label": "Drummin (Ogham Site)" }, "geometry": { "type": "Point", "coordinates": [ -8.362222, 53.84 ] } },
{ "type": "Feature", "properties": { "id": "http://lod.ogham.link/data/OS40000197", "count": 1, "county": "Tipperary", "label": "Priesttown (Ogham Site)" }, "geometry": { "type": "Point", "coordinates": [ -7.758056, 52.221667 ] } },
{ "type": "Feature", "properties": { "id": "http://lod.ogham.link/data/OS40000190", "count": 1, "county": "Tipperary", "label": "Newcastle (Ogham Site)" }, "geometry": { "type": "Point", "coordinates": [ -8.105278, 52.275833 ] } },
{ "type": "Feature", "properties": { "id": "http://lod.ogham.link/data/OS40000005", "count": 1, "county": "Tyrone", "label": "Aghascrebagh (Ogham Site)" }, "geometry": { "type": "Point", "coordinates": [ -7.047778, 54.699444 ] } },
{ "type": "Feature", "properties": { "id": "http://lod.ogham.link/data/OS40000037", "count": 1, "county": "Waterford", "label": "Ballyvellon (Ogham Site)" }, "geometry": { "type": "Point", "coordinates": [ -7.226667, 52.185 ] } },
{ "type": "Feature", "properties": { "id": "http://lod.ogham.link/data/OS40000090", "count": 1, "county": "Waterford", "label": "Curraghnagarraha (Ogham Site)" }, "geometry": { "type": "Point", "coordinates": [ -7.379167, 52.324167 ] } },
{ "type": "Feature", "properties": { "id": "http://lod.ogham.link/data/OS40000035", "count": 1, "county": "Waterford", "label": "Ballyquin (Ogham Site)" }, "geometry": { "type": "Point", "coordinates": [ -7.385, 52.311111 ] } },
{ "type": "Feature", "properties": { "id": "http://lod.ogham.link/data/OS40000086", "count": 1, "county": "Waterford", "label": "Crehanagh South (Ogham Site)" }, "geometry": { "type": "Point", "coordinates": [ -7.391111, 52.330556 ] } },
{ "type": "Feature", "properties": { "id": "http://lod.ogham.link/data/OS40000119", "count": 1, "county": "Waterford", "label": "Fox`s Castle (Ogham Site)" }, "geometry": { "type": "Point", "coordinates": [ -7.495, 52.155278 ] } },
{ "type": "Feature", "properties": { "id": "http://lod.ogham.link/data/OS40000169", "count": 1, "county": "Waterford", "label": "Knockalafalla (Ogham Site)" }, "geometry": { "type": "Point", "coordinates": [ -7.511667, 52.326389 ] } },
{ "type": "Feature", "properties": { "id": "http://lod.ogham.link/data/OS40000146", "count": 1, "county": "Waterford", "label": "Kilbeg (Ogham Site)" }, "geometry": { "type": "Point", "coordinates": [ -7.544722, 52.110278 ] } },
{ "type": "Feature", "properties": { "id": "http://lod.ogham.link/data/OS40000192", "count": 1, "county": "Waterford", "label": "Old Island (Ogham Site)" }, "geometry": { "type": "Point", "coordinates": [ -7.59, 52.160833 ] } },
{ "type": "Feature", "properties": { "id": "http://lod.ogham.link/data/OS40000222", "count": 1, "county": "Waterford", "label": "Tooracurragh (Ogham Site)" }, "geometry": { "type": "Point", "coordinates": [ -7.746944, 52.267222 ] } },
{ "type": "Feature", "properties": { "id": "http://lod.ogham.link/data/OS40000091", "count": 1, "county": "Waterford", "label": "Cush of Grange (Ogham Site)" }, "geometry": { "type": "Point", "coordinates": [ -7.755833, 51.988333 ] } },
{ "type": "Feature", "properties": { "id": "http://lod.ogham.link/data/OS40000165", "count": 1, "county": "Waterford", "label": "Kilmolash (Ogham Site)" }, "geometry": { "type": "Point", "coordinates": [ -7.804444, 52.1025 ] } },
{ "type": "Feature", "properties": { "id": "http://lod.ogham.link/data/OS40000213", "count": 1, "county": "Waterford", "label": "Seemochuda (Ogham Site)" }, "geometry": { "type": "Point", "coordinates": [ -7.998889, 52.199444 ] } },
{ "type": "Feature", "properties": { "id": "http://lod.ogham.link/data/OS40000082", "count": 1, "county": "Wexford", "label": "Cotts (Ogham Site)" }, "geometry": { "type": "Point", "coordinates": [ -6.4275, 52.215278 ] } },
{ "type": "Feature", "properties": { "id": "http://lod.ogham.link/data/OS40000156", "count": 1, "county": "Wexford", "label": "Killabeg (Ogham Site)" }, "geometry": { "type": "Point", "coordinates": [ -6.530278, 52.543611 ] } },
{ "type": "Feature", "properties": { "id": "http://lod.ogham.link/data/OS40000211", "count": 1, "county": "Wexford", "label": "Saltee Island Great (Ogham Site)" }, "geometry": { "type": "Point", "coordinates": [ -6.6177, 52.1173 ] } },
{ "type": "Feature", "properties": { "id": "http://lod.ogham.link/data/OS40000023", "count": 1, "county": "Wexford", "label": "Balloughton (Ogham Site)" }, "geometry": { "type": "Point", "coordinates": [ -6.720556, 52.250556 ] } },
{ "type": "Feature", "properties": { "id": "http://lod.ogham.link/data/OS40000138", "count": 1, "county": "Wexford", "label": "Houseland / Hook POINT (Ogham Site)" }, "geometry": { "type": "Point", "coordinates": [ -6.887778, 52.161389 ] } },
{ "type": "Feature", "properties": { "id": "http://lod.ogham.link/data/OS40000062", "count": 1, "county": "Wicklow", "label": "Castletimon (Ogham Site)" }, "geometry": { "type": "Point", "coordinates": [ -6.063611, 52.909167 ] } },
{ "type": "Feature", "properties": { "id": "http://lod.ogham.link/data/OS40000168", "count": 1, "county": "Wicklow", "label": "Knickeen (Ogham Site)" }, "geometry": { "type": "Point", "coordinates": [ -6.535, 52.998056 ] } },
{ "type": "Feature", "properties": { "id": "http://lod.ogham.link/data/OS40000045", "count": 1, "county": "Wicklow", "label": "Boleycarrigeen (Ogham Site)" }, "geometry": { "type": "Point", "coordinates": [ -6.608898, 52.947012 ] } },
{ "type": "Feature", "properties": { "id": "http://lod.ogham.link/data/OS40000098", "count": 1, "county": "Wicklow", "label": "Donard (Ogham Site)" }, "geometry": { "type": "Point", "coordinates": [ -6.617778, 53.016944 ] } },
{ "type": "Feature", "properties": { "id": "http://lod.ogham.link/data/OS40000040", "count": 1, "county": "Wicklow", "label": "Baltinglass (Ogham Site)" }, "geometry": { "type": "Point", "coordinates": [ -6.624444, 52.966389 ] } }
]
}
